







$GPGGA,141508.000,4304.9880,N,07735.3439,W,1,11,0.8,209.3,M,-34.3,M,,0000*6F

$GPGSA,A,3,10,13,09,12,23,04,25,02,17,20,28,,1.2,0.8,1.0*3F

$GPRMC,141508.000,A,4304.9880,N,07735.3439,W,0.01,109.32,010116,,,A*7B

$GPGGA,141509.000,4304.9880,N,07735.3439,W,1,11,0.8,209.3,M,-34.3,M,,0000*6E

É;õ≥c6∆∆&∆F∆Ü∆6F∆FF∆v∆ff∆6ñ∆∆∆V∆f∆FF∆&∆FÜ∆&VÜ∆FF¶v6k
$GPGSV,3,2,12,17,47,102,44,12,35,307,44,20,11,041,44,23,11,075,44*78


$GPRMC,141511.000,A,4304.9880,N,07735.3439,W,0.01,87.93,010116,,,A*4F

$GPGGA,141512.000,4304.9880,N,07735.3439,W,1,11,0.8,209.3,M,-34.3,M,,0000*64

$GPGSA,A,3,10,13,09,12,23,04,25,02,17,20,28,,1.2,0.8,1.0*3F

$GPRMC,141512.000,A,4304.9880,N,07735.3439,W,0.01,81.52,010116,,,A*47

$GPGGA,141513.000,4304.9880,N,07735.3439,W,1,11,0.8,209.3,M,-34.3,M,,0000*65

$GPGSA,A,3,10,13,09,12,23,04,25,02,17,20,28,,1.2,0.8,1.0*3F

$GPRMC,141513.000,A,4304.9880,N,07735.3439,W,0.01,107.33,010116,,,A*7E

$GPGGA,141514.000,4304.9880,N,07735.3439,W,1,11,0.8,209.3,M,-34.3,M,,0000*62
$GPGGA,141516.000,4304.9880,N,07735.3439,W,1,11,0.8,209.3,M,-34.3,M,,0000*60
$GPGSA,A,3,10,13,09,12,23,04,25,02,17,20,28,,1.2,0.8,1.0*3F


$GPGSV,3,2,12,17,47,102,44,12,35,307,44,20,11,041,44,23,11,075,44*78

$GPGSV,3,3,12,28,09,162,44,25,08,324,44,09,07,258,44,13,06,102,44*70
$GPRMC,141516.000,A,4304.9880,N,07735.3439,W,0.01,114.88,010116,,,A*79
$GPRMC,141517.000,A,4304.9880,N,07735.3439,W,0.01,86.97,010116,,,A*4C

$GPGGA,141518.000,4304.9880,N,07735.3439,W,1,11,0.8,209.3,M,-34.3,M,,0000*6E

$GPGSA,A,3,10,13,09,12,23,04,25,02,17,20,28,,1.2,0.8,1.0*3F

$GPRMC,141518.000,A,4304.9880,N,07735.3439,W,0.01,91.97,010116,,,A*45


$GPGSA,A,3,10,13,09,12,23,04,25,02,17,20,28,,1.2,0.8,1.0*3F

$GPGSV,3,1,12,04,81,340,44,07,66,309,,10,50,161,44,02,48,258,44*7C
$GPGSV,3,2,12,17,47,102,44,12,35,307,44,20,11,041,44,23,11,075,44*78


$GPGSA,A,3,10,13,09,12,23,04,25,02,17,20,28,,1.2,0.8,1.0*3F

$GPRMC,141522.000,A,4304.9880,N,07735.3439,W,0.01,98.52,010116,,,A*4C

$GPGGA,141523.000,4304.9880,N,07735.3439,W,1,11,0.8,209.4,M,-34.3,M,,0000*61



$GPGSA,A,3,09,29,03,21,15,27,,,,,,,1.9,1.4,1.3*3E
$GPGSA,A,3,09,29,03,21,15,27,,,,,,,1.9,1.4,1.3*3E

$GPRMC,140506.000,A,4159.9995,S,17359.9990,E,0.10,301.27,010116,,,A*71

Œôñ∆6∆&∆V∆&v∆∆∆∆∆∆∆Êñ∆ÊF∆Ê6¶6Vk
$GPRMC,140512.000,A,4159.9995,S,17359.9990,E,0.09,300.83,010116,,,A*73

$GPGGA,140513.000,4159.9995,S,17359.9990,E,1,06,1.4,156.3,M,17.0,M,,0000*42

$GPGSA,A,3,09,29,03,21,15,27,,,,,,,1.9,1.4,1.3*3E

$GPGSV,3,1,09,21,77,219,38,02,71,293,,15,65,090,38,29,31,353,38*7E

$GPGSV,3,2,09,27,17,060,38,03,12,220,38,09,11,046,38,16,04,247,38*7D

$GPGSV,3,3,09,05,04,349,*4F

$GPRMC,140513.000,A,4159.9995,S,17359.9990,E,0.10,306.75,010116,,,A*75

$GPGGA,140514.000,4159.9995,S,17359.9990,E,1,06,1.4,156.3,M,17.0,M,,0000*45


$GPRMC,140514.000,A,4159.9995,S,17359.9990,E,0.10,297.77,010116,,,A*79



$GPRMC,140523.000,A,4159.9995,S,17359.9989,E,0.10,298.73,010116,,,A*7E
$GPGGA,140524.000,4159.9995,S,17359.9989,E,1,06,1.4,156.3,M,17.0,M,,0000*4E
$GPGSA,A,3,09,29,03,21,15,27,,,,,,,1.9,1.4,1.3*3E
$GPRMC,140524.000,A,4159.9995,S,17359.9989,E,0.09,303.57,010116,,,A*74
$GPRMC,140529.000,A,4159.9995,S,17359.9990,E,0.09,303.19,010116,,,A*7B

$GPGSV,3,3,09,05,04,349,*4F

$GPRMC,140533.000,A,4159.9995,S,17359.9990,E,0.08,299.84,010116,,,A*77

$GPGSV,3,3,09,05,04,349,*4F
$GPRMC,140538.000,A,4159.9995,S,17359.9990,E,0.09,305.37,010116,,,A*71


$GPRMC,140613.000,A,4159.9994,S,17359.9990,E,0.09,303.20,010116,,,A*7A
$GPGSA,A,3,09,29,03,21,15,27,,,,,,,1.9,1.4,1.3*3E

$GPRMC,140614.000,A,4159.9994,S,17359.9990,E,0.10,300.79,010116,,,A*7A






$GPGGA,142025.000,5130.9168,N,00007.7538,W,1,07,1.2,131.0,M,47.0,M,,0000*45

$GPGSA,A,3,04,23,12,13,10,31,20,,,,,,2.2,1.2,1.9*3C
$GPGSA,A,3,04,23,12,13,10,31,20,,,,,,2.2,1.2,1.9*3C
$GPGSA,A,3,04,23,12,13,10,31,20,,,,,,2.2,1.2,1.9*3C
$GPGSV,3,1,12,20,65,079,46,23,61,172,46,03,50,122,,22,45,079,*7D
$GPGSV,3,2,12,06,38,114,,11,35,251,,13,33,194,46,04,31,301,46*78
$GPGSV,3,3,12,32,29,166,,31,22,051,46,08,20,283,,07,17,285,*78
$GPRMC,142027.000,A,5130.9168,N,00007.7537,W,0.11,49.95,010116,,,A*48

$GPGGA,142032.000,5130.9169,N,00007.7536,W,1,07,1.2,130.6,M,47.0,M,,0000*4B

$GPGSA,A,3,04,23,12,13,10,31,20,,,,,,2.3,1.2,1.9*3D

$GPGSV,3,1,12,20,65,079,44,23,61,172,44,03,50,122,,22,45,079,*7D

$GPGSV,3,2,12,06,38,114,,11,35,251,,13,33,194,44,04,31,301,44*78

$GPRMC,142035.000,A,5130.9169,N,00007.7536,W,0.11,51.07,010116,,,A*49
$GPGGA,142036.000,5130.9169,N,00007.7535,W,1,07,1.2,130.5,M,47.0,M,,0000*4F

$GPRMC,142036.000,A,5130.9169,N,00007.7535,W,0.12,51.79,010116,,,A*43
$GPGSA,A,3,04,23,12,13,10,31,20,,,,,,2.3,1.2,1.9*3D

$GPRMC,142041.000,A,5130.9170,N,00007.7534,W,0.11,50.98,010116,,,A*47




$GPGGA,142331.000,5130.9178,N,00007.7512,W,1,07,1.2,128.5,M,47.0,M,,0000*47
$GPGSA,A,3,04,23,12,13,10,31,20,,,,,,2.3,1.2,2.0*37

$GPRMC,142331.000,A,5130.9178,N,00007.7512,W,0.11,52.87,010116,,,A*43

1.2,2.0*37

$GPRMC,142342.000,A,5130.9179,N,00007.7512,W,0.11,51.22,010116,,,A*4A

$GPGGA,142343.000,5130.9179,N,00007.7512,W,1,07,1.2,128.4,M,47.0,M,,0000*42











$GPGSA,A,3,04,23,12,13,10,31,20,,,,,,2.3,1.2,2.0*37
$GPRMC,142349.000,A,5130.9179,N,00007.7511,W,0.11,50.58,010116,,,A*4E



$GPGSV,3,2,12,11,36,251,,13,35,194,48,04,32,300,48,32,31,165,*77

$GPGSV,3,3,12,31,22,050,48,08,19,282,,07,16,284,,30,15,176,*70








$GPGSV,3,2,12,11,36,251,,13,35,194,48,04,32,300,48,32,31,165,*77

$GPGSV,3,3,12,31,22,050,48,08,19,282,22,07,16,284,,30,15,176,*70

$GPRMC,142357.000,A,5130.9179,N,00007.7511,W,0.11,52.07,010116,,,A*49

$GPGGA,142358.000,5130.9179,N,00007.7511,W,1,07,1.2,128.4,M,47.0,M,,0000*4B
$GPGSA,A,3,04,23,12,13,10,31,20,,,,,,2.3,1.2,2.0*37

$GPRMC,142358.000,A,5130.9179,N,00007.7511,W,0.11,50.26,010116,,,A*47

$GPGGA,142400.000,5130.9179,N,00007.7511,W,1,07,1.2,128.4,M,47.0,M,,0000*41
$GPGSA,A,3,04,23,12,13,10,31,20,,,,,,2.3,1.2,2.0*37

$GPRMC,142400.000,A,5130.9179,N,00007.7511,W,0.12,52.69,010116,,,A*47

$GPGGA,142401.000,5130.9179,N,00007.7511,W,1,07,1.2,128.4,M,47.0,M,,0000*40

$GPGSA,A,3,04,23,12,13,10,31,20,,,,,,2.3,1.2,2.0*37

$GPRMC,142401.000,A,5130.9179,N,00007.7511,W,0.12,48.84,010116,,,A*4E

$GPGGA,142402.000,5130.9179,N,00007.7511,W,1,07,1.2,128.4,M,47.0,M,,0000*43

$GPGSA,A,3,04,23,12,13,10,31,20,,,,,,2.3,1.2,2.0*37

$GPGSV,3,1,12,20,64,080,48,23,62,170,47,03,49,123,23,06,37,115,*74

$GPGSV,3,2,12,11,36,251,,13,35,194,47,04,32,300,48,32,31,165,*78

$GPGSV,3,3,12,31,22,050,48,08,19,282,,07,16,284,,30,15,176,*70

$GPRMC,142402.000,A,5130.9179,N,00007.7511,W,0.11,51.51,010116,,,A*4E


vÊvV∆vçÊ&∆V&ÊÜ6∆f∆∆∆SF&k
$GPGGA,142410.000,5130.9179,N,00007.7510,W,1,07,1.2,128.3,M,47.0,M,,0000*46
$GPGSA,A,3,04,23,12,13,10,31,20,,,,,,2.3,1.2,2.0*37
$GPRMC,142410.000,A,5130.9179,N,00007.7510,W,0.11,50.97,010116,,,A*47
$GPGGA,142411.000,5130.9179,N,00007.7510,W,1,07,1.2,128.3,M,47.0,M,,0000*47

$GPGSA,A,3,04,23,12,13,10,31,20,,,,,,2.3,1.2,2.0*37


f∆∆∆SFVk
$GPGGA,142427.000,5130.9179,N,00007.7510,W,1,07,1.2,128.2,M,47.0,M,,0000*43
$GPGSA,A,3,04,23,12,13,10,31,20,,,,,,2.3,1.2,2.0*37

$GPGSV,3,2,12,11,36,251,,13,35,194,44,04,32,300,44,32,31,165,*77



$GPGSA,A,3,04,23,12,13,10,31,20,,,,,,2.3,1.2,2.0*37
$GPRMC,142429.000,A,5130.9179,N,00007.7509,W,0.11,53.84,010116,,,A*44
$GPGSV,3,3,12,31,22,050,44,08,19,282,,07,16,284,,30,15,176,20*7E

$GPRMC,142432.000,A,5130.9179,N,00007.7509,W,0.11,54.19,010116,,,A*4D

$GPGGA,142433.000,5130.9179,N,00007.7509,W,1,07,1.2,128.2,M,47.0,M,,0000*4E

$GPGSA,A,3,04,23,12,13,10,31,20,,,,,,2.3,1.2,2.0*37

$GPRMC,142434.000,A,5130.9179,N,00007.7509,W,0.11,50.69,010116,,,A*48


$GPGSV,3,1,12,20,64,080,44,23,62,170,44,03,49,123,,06,37,115,*7A

$GPGSA,A,3,04,23,12,13,10,31,20,,,,,,2.3,1.2,2.0*37

$GPRMC,142438.000,A,5130.9179,N,00007.7509,W,0.11,53.85,010116,,,A*45
$GPGGA,142449.000,5130.9179,N,00007.7509,W,1,07,1.2,128.1,M,47.0,M,,0000*40

$GPGSA,A,3,04,23,12,13,10,31,20,,,,,,2.3,1.2,2.0*37

$GPRMC,142449.000,A,5130.9179,N,00007.7509,W,0.11,51.37,010116,,,A*48

$GPGGA,142450.000,5130.9179,N,00007.7509,W,1,07,1.2,128.1,M,47.0,M,,0000*48


$GPGGA,142452.000,5130.9179,N,00007.7509,W,1,07,1.2,128.1,M,47.0,M,,0000*4A


$GPGSV,3,1,12,20,64,080,43,23,62,170,43,03,49,123,,06,37,115,*7A


$GPGGA,142523.000,5130.9179,N,00007.7508,W,1,07,1.2,127.9,M,47.0,M,,0000*4B

$GPGSA,A,3,04,23,12,13,10,31,20,,,,,,2.3,1.2,2.0*37

$GPRMC,142523.000,A,5130.9179,N,00007.7508,W,0.12,54.80,010116,,,A*4E

$GPGGA,142524.000,5130.9179,N,00007.7508,W,1,07,1.2,127.9,M,47.0,M,,0000*4C

$GPGSA,A,3,04,23,12,13,10,31,20,,,,,,2.3,1.2,2.0*37

$GPRMC,142524.000,A,5130.9179,N,00007.7508,W,0.11,52.80,010116,,,A*4C

$GPGGA,142531.000,5130.9179,N,00007.7508,W,1,07,1.2,127.9,M,47.0,M,,0000*48

$GPGSA,A,3,04,23,12,13,10,31,20,,,,,,2.3,1.2,2.0*37

$GPGGA,142532.000,5130.9179,N,00007.7508,W,1,07,1.2,127.9,M,47.0,M,,0000*4B

$GPGSV,3,1,12,20,64,080,43,23,62,170,43,03,49,123,,06,37,115,*7A

$GPGSV,3,2,12,11,36,251,,13,35,194,43,04,32,300,43,32,31,165,*77
$GPGSV,3,3,12,31,22,050,43,08,19,282,,07,16,284,,30,15,176,19*73

$GPRMC,142532.000,A,5130.9179,N,00007.7508,W,0.11,52.65,010116,,,A*40

$GPGGA,142533.000,5130.9179,N,00007.7508,W,1,07,1.2,127.8,M,47.0,M,,0000*4B

$GPGSA,A,3,04,23,12,13,10,31,20,,,,,,2.3,1.2,2.0*37

$GPGSV,3,1,12,20,64,080,43,23,62,170,43,03,49,123,,06,37,115,*7A
$GPGSV,3,3,12,31,22,050,43,08,19,282,,07,16,284,,30,15,176,18*72

$GPRMC,142537.000,A,5130.9179,N,00007.7508,W,0.11,51.73,010116,,,A*41

$GPRMC,142546.000,A,5130.9179,N,00007.7508,W,0.11,51.00,010116,,,A*43
$GPGSA,A,3,04,23,12,13,10,31,20,,,,,,2.3,1.2,2.0*37
$GPGGA,142554.000,5130.9179,N,00007.7508,W,1,07,1.2,127.8,M,47.0,M,,0000*4A

$GPRMC,142554.000,A,5130.9179,N,00007.7508,W,0.12,49.27,010116,,,A*4F

$GPGGA,142555.000,5130.9179,N,00007.7508,W,1,07,1.2,127.8,M,47.0,M,,0000*4B
$GPGSA,A,3,04,23,12,13,10,31,20,,,,,,2.3,1.2,2.0*37
$GPRMC,142555.000,A,5130.9179,N,00007.7508,W,0.11,51.66,010116,,,A*41
$GPGGA,142556.000,5130.9179,N,00007.7508,W,1,07,1.2,127.8,M,47.0,M,,0000*48
$GPGSA,A,3,04,23,12,13,10,31,20,,,,,,2.3,1.2,2.0*37
$GPRMC,142556.000,A,5130.9179,N,00007.7508,W,0.11,51.81,010116,,,A*4B
